linear:
  x: 0.42500000000099064
  y: -0.06499999999993494
  z: 0.0
angular:
  x: 0.0
  y: 0.0
  z: -2.3129308293910434e-18
---
linear:
  x: 0.4228750000009807
  y: -0.06467499999932248
  z: 0.0
angular:
  x: 0.0
  y: 0.0
  z: 2.9660135611155855e-23
---
linear:
  x: 0.4207606250009709
  y: -0.06435162499932932
  z: 0.0
angular:
  x: 0.0
  y: 0.0
  z: 2.3006391980486414e-18
---
linear:
  x: 0.4186568218722427
  y: -0.06402986687480082
  z: 0.0
angular:
  x: 0.0
  y: 0.0
  z: 1.0910453042975935e-18
---
linear:
  x: 0.416563537766595
  y: -0.06370971753996538
  z: 0.0
angular:
  x: 0.0
  y: 0.0
  z: -1.2189661213842054e-18
---
linear:
  x: 0.4144807200777572
  y: -0.06339116895233923
  z: 0.0
angular:
  x: 0.0
  y: 0.0
  z: -2.4687952524129825e-18
---
linear:
  x: 0.41240831647370063
  y: -0.06307421310810843
  z: 0.0
angular:
  x: 0.0
  y: 0.0
  z: 1.0263438543818844e-18
---
linear:
  x: 0.4103462748949902
  y: -0.06275884204242888
  z: 0.0
angular:
  x: 0.0
  y: 0.0
  z: 1.0048233501598896e-18
---
linear:
  x: 0.4082945435205105
  y: -0.06244504783228707
  z: 0.0
angular:
  x: 0.0
  y: 0.0
  z: 2.253439425381911e-23
---
linear:
  x: 0.40625307080290307
  y: -0.0621328225930573
  z: 0.0
angular:
  x: 0.0
  y: 0.0
  z: 4.516198441280633e-18
---
linear:
  x: 0.4042218054488838
  y: -0.06182215847964423
  z: 0.0
angular:
  x: 0.0
  y: 0.0
  z: -2.623756406785124e-18
---
linear:
  x: 0.4022006964180625
  y: -0.061513047687695804
  z: 0.0
angular:
  x: 0.0
  y: 0.0
  z: -2.6548135565935696e-18
---
linear:
  x: 0.40018969293953977
  y: -0.0612054824493942
  z: 0.0
angular:
  x: 0.0
  y: 0.0
  z: 3.1371766143475415e-18
---
linear:
  x: 0.39818874447483743
  y: -0.06089945503701235
  z: 0.0
angular:
  x: 0.0
  y: 0.0
  z: -2.7170133863980352e-18
---
linear:
  x: 0.39619780075245864
  y: -0.06059495776196279
  z: 0.0
angular:
  x: 0.0
  y: 0.0
  z: 8.540495553491953e-19
---
linear:
  x: 0.394216811746941
  y: -0.060291982972581745
  z: 0.0
angular:
  x: 0.0
  y: 0.0
  z: 2.2221403643137185e-18
---
linear:
  x: 0.39224572768995225
  y: -0.059990523058290654
  z: 0.0
angular:
  x: 0.0
  y: 0.0
  z: 3.6215127220777235e-18
---
linear:
  x: 0.3902844990497649
  y: -0.059690570442866984
  z: 0.0
angular:
  x: 0.0
  y: 0.0
  z: 3.315442933110541e-18
---
linear:
  x: 0.3883330765545203
  y: -0.0593921175906536
  z: 0.0
angular:
  x: 0.0
  y: 0.0
  z: 1.870011290828666e-18
---
linear:
  x: 0.38639141117346754
  y: -0.059095157002766886
  z: 0.0
angular:
  x: 0.0
  y: 0.0
  z: -3.529770485640005e-19
---
linear:
  x: 0.38445945411588844
  y: -0.058799681218245754
  z: 0.0
angular:
  x: 0.0
  y: 0.0
  z: -7.69245407978961e-18
---
linear:
  x: 0.3825371568470119
  y: -0.05850568281123834
  z: 0.0
angular:
  x: 0.0
  y: 0.0
  z: 4.373439699780734e-18
---
linear:
  x: 0.38062447106108194
  y: -0.05821315439712025
  z: 0.0
angular:
  x: 0.0
  y: 0.0
  z: -4.088959935102576e-18
---
linear:
  x: 0.3787213487074625
  y: -0.057922088625558164
  z: 0.0
angular:
  x: 0.0
  y: 0.0
  z: 2.8351459978399093e-18
---
linear:
  x: 0.3768277419622473
  y: -0.05763247818297762
  z: 0.0
angular:
  x: 0.0
  y: 0.0
  z: -4.1460049784622746e-18
---
linear:
  x: 0.37494360325410514
  y: -0.05734431579164468
  z: 0.0
angular:
  x: 0.0
  y: 0.0
  z: -4.647381240483132e-19
---
linear:
  x: 0.37306888523783005
  y: -0.05705759421262341
  z: 0.0
angular:
  x: 0.0
  y: 0.0
  z: 5.8773688695469116e-18
---
linear:
  x: 0.3712035408099882
  y: -0.05677230624156088
  z: 0.0
angular:
  x: 0.0
  y: 0.0
  z: 2.7256531367734455e-18
---
linear:
  x: 0.3693475231059421
  y: -0.05648844471035366
  z: 0.0
angular:
  x: 0.0
  y: 0.0
  z: -3.1875763383110165e-18
---
linear:
  x: 0.36750078549041637
  y: -0.05620600248680249
  z: 0.0
angular:
  x: 0.0
  y: 0.0
  z: 5.30686849993481e-19
---
linear:
  x: 0.3656632815645921
  y: -0.05592497247436908
  z: 0.0
angular:
  x: 0.0
  y: 0.0
  z: -5.581855267895789e-19
---
linear:
  x: 0.36383496515676483
  y: -0.055645347611997825
  z: 0.0
angular:
  x: 0.0
  y: 0.0
  z: 3.1931773060153196e-18
---
linear:
  x: 0.36201579032936915
  y: -0.055367120873938434
  z: 0.0
angular:
  x: 0.0
  y: 0.0
  z: 4.659226286808163e-19
---
linear:
  x: 0.3602057113793257
  y: -0.05509028526956933
  z: 0.0
angular:
  x: 0.0
  y: 0.0
  z: 1.5030088965506252e-18
---
linear:
  x: 0.3584046828208334
  y: -0.054814833843222104
  z: 0.0
angular:
  x: 0.0
  y: 0.0
  z: 5.279127886433435e-18
---
linear:
  x: 0.3566126594083166
  y: -0.054540759674006525
  z: 0.0
angular:
  x: 0.0
  y: 0.0
  z: -2.3566914890195264e-18
---
linear:
  x: 0.35482959610969517
  y: -0.054268055875637086
  z: 0.0
angular:
  x: 0.0
  y: 0.0
  z: 3.7953950958799976e-19
---
linear:
  x: 0.35305544813071804
  y: -0.05399671559625946
  z: 0.0
angular:
  x: 0.0
  y: 0.0
  z: -6.894124590359674e-19
---
linear:
  x: 0.3512901708885004
  y: -0.05372673201827871
  z: 0.0
angular:
  x: 0.0
  y: 0.0
  z: -3.7197820459059272e-19
---
linear:
  x: 0.3495337200356139
  y: -0.0534580983581879
  z: 0.0
angular:
  x: 0.0
  y: 0.0
  z: 3.1464905197637893e-19
---
linear:
  x: 0.3477860514354318
  y: -0.053190807866397495
  z: 0.0
angular:
  x: 0.0
  y: 0.0
  z: 2.930186059162427e-19
---
linear:
  x: 0.346047121176714
  y: -0.052924853827066055
  z: 0.0
angular:
  x: 0.0
  y: 0.0
  z: -1.8007413385610056e-18
---
linear:
  x: 0.3443168855708339
  y: -0.052660229557931315
  z: 0.0
angular:
  x: 0.0
  y: 0.0
  z: -2.8500858994532437e-18
---
linear:
  x: 0.34259530114450465
  y: -0.05239692841014218
  z: 0.0
angular:
  x: 0.0
  y: 0.0
  z: -3.665746865246323e-18
---
linear:
  x: 0.34088232463877827
  y: -0.05213494376809203
  z: 0.0
angular:
  x: 0.0
  y: 0.0
  z: 1.234114259841729e-18
---
linear:
  x: 0.33917791301558026
  y: -0.05187426904925213
  z: 0.0
angular:
  x: 0.0
  y: 0.0
  z: 2.0498953925783015e-18
---
linear:
  x: 0.33748202344899975
  y: -0.05161489770400642
  z: 0.0
angular:
  x: 0.0
  y: 0.0
  z: -1.8811893695401862e-18
---
linear:
  x: 0.3357946133332494
  y: -0.05135682321548695
  z: 0.0
angular:
  x: 0.0
  y: 0.0
  z: 1.4142477167395648e-19
---
linear:
  x: 0.3341156402665793
  y: -0.05110003909941004
  z: 0.0
angular:
  x: 0.0
  y: 0.0
  z: 2.0332951189406743e-18
---
linear:
  x: 0.3324450620637665
  y: -0.05084453890391353
  z: 0.0
angular:
  x: 0.0
  y: 0.0
  z: -3.90846272610609e-18
---
linear:
  x: 0.3307828367534509
  y: -0.0505903162093945
  z: 0.0
angular:
  x: 0.0
  y: 0.0
  z: 1.049293453064996e-18
---
linear:
  x: 0.3291289225711489
  y: -0.05033736462834806
  z: 0.0
angular:
  x: 0.0
  y: 0.0
  z: -1.9621655512576207e-18
---
linear:
  x: 0.32748327795683474
  y: -0.05008567780520685
  z: 0.0
angular:
  x: 0.0
  y: 0.0
  z: 7.006752791378522e-18
---
linear:
  x: 0.32584586156705425
  y: -0.04983524941618135
  z: 0.0
angular:
  x: 0.0
  y: 0.0
  z: -1.99467172321033e-18
---
linear:
  x: 0.3242166322592226
  y: -0.04958607316910097
  z: 0.0
angular:
  x: 0.0
  y: 0.0
  z: -4.011405300376963e-18
---
linear:
  x: 0.32259554909792953
  y: -0.049338142803255984
  z: 0.0
angular:
  x: 0.0
  y: 0.0
  z: 9.73536837580025e-19
---
linear:
  x: 0.32098257135386876
  y: -0.04909145208924027
  z: 0.0
angular:
  x: 0.0
  y: 0.0
  z: 3.926340217094585e-18
---
linear:
  x: 0.3193776584956775
  y: -0.04884599482879458
  z: 0.0
angular:
  x: 0.0
  y: 0.0
  z: -1.0480889796212834e-18
---
linear:
  x: 0.3177807702032025
  y: -0.04860176485465112
  z: 0.0
angular:
  x: 0.0
  y: 0.0
  z: -1.0611469844919453e-18
---
linear:
  x: 0.3161918663521897
  y: -0.048358756030378355
  z: 0.0
angular:
  x: 0.0
  y: 0.0
  z: -3.048442245386938e-18
---
linear:
  x: 0.31461090702043215
  y: -0.04811696225022699
  z: 0.0
angular:
  x: 0.0
  y: 0.0
  z: -4.143135234391397e-18
---
linear:
  x: 0.3130378524867236
  y: -0.04787637743897635
  z: 0.0
angular:
  x: 0.0
  y: 0.0
  z: -2.120900204306755e-18
---
linear:
  x: 0.31147266322290296
  y: -0.04763699555178195
  z: 0.0
angular:
  x: 0.0
  y: 0.0
  z: 9.355783208941155e-19
---
linear:
  x: 0.30991529990816824
  y: -0.04739881057402357
  z: 0.0
angular:
  x: 0.0
  y: 0.0
  z: -3.0792587649855395e-18
---
linear:
  x: 0.3083657234072543
  y: -0.047161816521153956
  z: 0.0
angular:
  x: 0.0
  y: 0.0
  z: 1.8417903727741064e-18
---
linear:
  x: 0.30682389479022126
  y: -0.046926007438548675
  z: 0.0
angular:
  x: 0.0
  y: 0.0
  z: -2.3553810607146327e-19
---
linear:
  x: 0.3052897753162734
  y: -0.04669137740135642
  z: 0.0
angular:
  x: 0.0
  y: 0.0
  z: 7.791007992335033e-19
---
linear:
  x: 0.3037633264410441
  y: -0.04645792051435014
  z: 0.0
angular:
  x: 0.0
  y: 0.0
  z: 2.6984049544639346e-18
---
linear:
  x: 0.3022445098074933
  y: -0.04622563091177887
  z: 0.0
angular:
  x: 0.0
  y: 0.0
  z: -1.1851970538316214e-18
---
linear:
  x: 0.30073328725979437
  y: -0.04599450275722049
  z: 0.0
angular:
  x: 0.0
  y: 0.0
  z: -5.206346215795403e-18
---
linear:
  x: 0.29922962082216326
  y: -0.04576453024343486
  z: 0.0
angular:
  x: 0.0
  y: 0.0
  z: -5.218399884096298e-18
---
linear:
  x: 0.2977334727193778
  y: -0.04553570759221816
  z: 0.0
angular:
  x: 0.0
  y: 0.0
  z: 1.5696148191927796e-18
---
linear:
  x: 0.29624480535577724
  y: -0.04530802905425755
  z: 0.0
angular:
  x: 0.0
  y: 0.0
  z: 6.818821398780947e-19
---
linear:
  x: 0.294763581328995
  y: -0.045081488908986764
  z: 0.0
angular:
  x: 0.0
  y: 0.0
  z: -2.293879600760131e-18
---
linear:
  x: 0.29328976342104407
  y: -0.04485608146444227
  z: 0.0
angular:
  x: 0.0
  y: 0.0
  z: 6.507645312402573e-19
---
linear:
  x: 0.2918233146052379
  y: -0.04463180105712055
  z: 0.0
angular:
  x: 0.0
  y: 0.0
  z: -2.1003376467313382e-19
---
linear:
  x: 0.2903641980309188
  y: -0.04440864205183538
  z: 0.0
angular:
  x: 0.0
  y: 0.0
  z: -2.1880512308787906e-19
---
linear:
  x: 0.28891237704205047
  y: -0.0441865988415767
  z: 0.0
angular:
  x: 0.0
  y: 0.0
  z: 1.4377018518194705e-18
---
linear:
  x: 0.2874678151555603
  y: -0.04396566584736929
  z: 0.0
angular:
  x: 0.0
  y: 0.0
  z: -2.360600575747658e-19
---
linear:
  x: 0.2860304760797853
  y: -0.043745837518132887
  z: 0.0
angular:
  x: 0.0
  y: 0.0
  z: 1.3954704618337527e-18
---
linear:
  x: 0.2846003236993895
  y: -0.04352710833054267
  z: 0.0
angular:
  x: 0.0
  y: 0.0
  z: 5.607834412927674e-19
---
linear:
  x: 0.28317732208215296
  y: -0.0433094727888904
  z: 0.0
angular:
  x: 0.0
  y: 0.0
  z: -1.3305170196253829e-18
---
linear:
  x: 0.28176143547173893
  y: -0.04309292542494644
  z: 0.0
angular:
  x: 0.0
  y: 0.0
  z: -8.091386539709298e-19
---
linear:
  x: 0.28035262829313196
  y: -0.04287746079782218
  z: 0.0
angular:
  x: 0.0
  y: 0.0
  z: -2.4248727608338335e-18
---
linear:
  x: 0.2789508651516695
  y: -0.04266307349383351
  z: 0.0
angular:
  x: 0.0
  y: 0.0
  z: 3.4445321171709514e-18
---
linear:
  x: 0.2775561108271466
  y: -0.04244975812636477
  z: 0.0
angular:
  x: 0.0
  y: 0.0
  z: 3.1347919520130917e-18
---
linear:
  x: 0.276168330271781
  y: -0.04223750933573337
  z: 0.0
angular:
  x: 0.0
  y: 0.0
  z: 4.756809241128287e-19
---
linear:
  x: 0.2747874886216454
  y: -0.04202632178905514
  z: 0.0
angular:
  x: 0.0
  y: 0.0
  z: 4.1703616926553715e-18
---
linear:
  x: 0.2734135511773198
  y: -0.04181619018011029
  z: 0.0
angular:
  x: 0.0
  y: 0.0
  z: 4.483623735012297e-19
---
linear:
  x: 0.2720464834226442
  y: -0.04160710922921017
  z: 0.0
angular:
  x: 0.0
  y: 0.0
  z: 4.3491974937926525e-19
---
linear:
  x: 0.27068625100552773
  y: -0.041399073683064544
  z: 0.0
angular:
  x: 0.0
  y: 0.0
  z: 1.5099913497084014e-18
---
linear:
  x: 0.26933281975049694
  y: -0.04119207831464969
  z: 0.0
angular:
  x: 0.0
  y: 0.0
  z: -2.1810378378823977e-18
---
linear:
  x: 0.2679861556505513
  y: -0.04098611792307687
  z: 0.0
angular:
  x: 0.0
  y: 0.0
  z: 3.951688364850661e-19
---
linear:
  x: 0.2666462248734855
  y: -0.04078118733346193
  z: 0.0
angular:
  x: 0.0
  y: 0.0
  z: 4.048218420482611e-18
---
linear:
  x: 0.2653129937479367
  y: -0.040577281396795034
  z: 0.0
angular:
  x: 0.0
  y: 0.0
  z: 1.4659512434072919e-18
---
linear:
  x: 0.2639864287791999
  y: -0.04037439498981148
  z: 0.0
angular:
  x: 0.0
  y: 0.0
  z: 3.56527340253292e-19
---
linear:
  x: 0.2626664966364732
  y: -0.040172523014862835
  z: 0.0
angular:
  x: 0.0
  y: 0.0
  z: 3.4385557237255184e-19
---
linear:
  x: 0.26135316415212717
  y: -0.03997166039978894
  z: 0.0
angular:
  x: 0.0
  y: 0.0
  z: 2.867910358606642e-18
---
linear:
  x: 0.2600463983325241
  y: -0.039771802097790396
  z: 0.0
angular:
  x: 0.0
  y: 0.0
  z: 1.4235154795323062e-18
---
linear:
  x: 0.2587461663397094
  y: -0.03957294308730185
  z: 0.0
angular:
  x: 0.0
  y: 0.0
  z: 3.064868208276839e-19
---
linear:
  x: 0.2574524355080136
  y: -0.03937507837186577
  z: 0.0
angular:
  x: 0.0
  y: 0.0
  z: -8.14370670139752e-19
---
linear:
  x: 0.2561651733304762
  y: -0.03917820298000688
  z: 0.0
angular:
  x: 0.0
  y: 0.0
  z: 1.3926443770117408e-18
---
linear:
  x: 0.2548843474649583
  y: -0.03898231196510725
  z: 0.0
angular:
  x: 0.0
  y: 0.0
  z: 1.382552983708163e-18
---
linear:
  x: 0.2536099257276305
  y: -0.03878740040528217
  z: 0.0
angular:
  x: 0.0
  y: 0.0
  z: -2.2287393246481002e-18
---
linear:
  x: 0.25234187609898945
  y: -0.03859346340325615
  z: 0.0
angular:
  x: 0.0
  y: 0.0
  z: 1.3625937885974096e-18
---
linear:
  x: 0.2510801667173766
  y: -0.038400496086240306
  z: 0.0
angular:
  x: 0.0
  y: 0.0
  z: 2.345876801669216e-19
---
linear:
  x: 0.24982476588379243
  y: -0.03820849360580949
  z: 0.0
angular:
  x: 0.0
  y: 0.0
  z: -1.1200521518627278e-18
---
linear:
  x: 0.24857564205437596
  y: -0.03801745113778085
  z: 0.0
angular:
  x: 0.0
  y: 0.0
  z: -3.3656610780384278e-18
---
linear:
  x: 0.24733276384520508
  y: -0.03782736388209234
  z: 0.0
angular:
  x: 0.0
  y: 0.0
  z: 2.0000398781042778e-19
---
linear:
  x: 0.24609610002488344
  y: -0.03763822706268227
  z: 0.0
angular:
  x: 0.0
  y: 0.0
  z: 2.4398200977067627e-18
---
linear:
  x: 0.24486561952584904
  y: -0.03745003592736926
  z: 0.0
angular:
  x: 0.0
  y: 0.0
  z: -2.2548566262970665e-18
---
linear:
  x: 0.24364129142713487
  y: -0.03726278574773278
  z: 0.0
angular:
  x: 0.0
  y: 0.0
  z: 1.662619577813292e-19
---
linear:
  x: 0.24242308497107828
  y: -0.037076471818994504
  z: 0.0
angular:
  x: 0.0
  y: 0.0
  z: 1.5518008478934618e-19
---
linear:
  x: 0.24121096954622012
  y: -0.036891089459899926
  z: 0.0
angular:
  x: 0.0
  y: 0.0
  z: 1.4423451104777764e-19
---
linear:
  x: 0.24000491469742052
  y: -0.03670663401260084
  z: 0.0
angular:
  x: 0.0
  y: 0.0
  z: 1.333582399497484e-19
---
linear:
  x: 0.23880489012499637
  y: -0.03652310084253824
  z: 0.0
angular:
  x: 0.0
  y: 0.0
  z: 2.395276314108289e-18
---
linear:
  x: 0.23761086567436845
  y: -0.03634048533832591
  z: 0.0
angular:
  x: 0.0
  y: 0.0
  z: 1.1187399638286293e-19
---
linear:
  x: 0.23642281134494408
  y: -0.03615878291163465
  z: 0.0
angular:
  x: 0.0
  y: 0.0
  z: 2.482152701510832e-18
---
linear:
  x: 0.2352406972882218
  y: -0.035977988997076875
  z: 0.0
angular:
  x: 0.0
  y: 0.0
  z: 9.067814733298234e-20
---
linear:
  x: 0.23406449380178304
  y: -0.03579809905209189
  z: 0.0
angular:
  x: 0.0
  y: 0.0
  z: -3.4299687293996313e-18
---
linear:
  x: 0.2328941713327767
  y: -0.03561910855683182
  z: 0.0
angular:
  x: 0.0
  y: 0.0
  z: 1.2149434001917763e-18
---
linear:
  x: 0.23172970047611535
  y: -0.03544101301404805
  z: 0.0
angular:
  x: 0.0
  y: 0.0
  z: -2.293448995856872e-18
---
linear:
  x: 0.23057105197476113
  y: -0.03526380794897823
  z: 0.0
angular:
  x: 0.0
  y: 0.0
  z: -2.2967810609981715e-18
---
linear:
  x: 0.2294181967138658
  y: -0.035087488909233695
  z: 0.0
angular:
  x: 0.0
  y: 0.0
  z: -2.3001672812199077e-18
---
linear:
  x: 0.22827110573029896
  y: -0.03491205146468789
  z: 0.0
angular:
  x: 0.0
  y: 0.0
  z: 2.922920682558388e-20
---
linear:
  x: 0.2271297502026585
  y: -0.034737491207364794
  z: 0.0
angular:
  x: 0.0
  y: 0.0
  z: 4.652137711207092e-18
---
linear:
  x: 0.2259941014516425
  y: -0.034563803751328344
  z: 0.0
angular:
  x: 0.0
  y: 0.0
  z: -1.4897386844918648e-23
---
linear:
  x: 0.22486413094338303
  y: -0.034390984732572044
  z: 0.0
angular:
  x: 0.0
  y: 0.0
  z: 1.156301743694268e-18
---
linear:
  x: 0.2237398102886686
  y: -0.034219029808909555
  z: 0.0
angular:
  x: 0.0
  y: 0.0
  z: -2.316675411408789e-18
---
linear:
  x: 0.22262111123722755
  y: -0.03404793465986534
  z: 0.0
angular:
  x: 0.0
  y: 0.0
  z: -1.975081749129057e-20
---
linear:
  x: 0.2215080056820275
  y: -0.03387769498656637
  z: 0.0
angular:
  x: 0.0
  y: 0.0
  z: -2.930914955096138e-20
---
linear:
  x: 0.22040046565263596
  y: -0.03370830651163388
  z: 0.0
angular:
  x: 0.0
  y: 0.0
  z: -2.326261997483119e-18
---
linear:
  x: 0.2192984633243752
  y: -0.03353976497907608
  z: 0.0
angular:
  x: 0.0
  y: 0.0
  z: -3.041189934060716e-25
---
linear:
  x: 0.21820197100775557
  y: -0.033372066154181014
  z: 0.0
angular:
  x: 0.0
  y: 0.0
  z: -1.166306869131828e-18
---
linear:
  x: 0.21711096115368322
  y: -0.033205205823410466
  z: 0.0
angular:
  x: 0.0
  y: 0.0
  z: -1.1678302956829846e-18
---
linear:
  x: 0.21602540634695305
  y: -0.03303917979429374
  z: 0.0
angular:
  x: 0.0
  y: 0.0
  z: 3.356014320190188e-18
---
linear:
  x: 0.214945279316175
  y: -0.03287398389532264
  z: 0.0
angular:
  x: 0.0
  y: 0.0
  z: 1.0857483326267715e-18
---
linear:
  x: 0.21387055291959156
  y: -0.03270961397584635
  z: 0.0
angular:
  x: 0.0
  y: 0.0
  z: 1.0782240132485268e-18
---
linear:
  x: 0.21280120015404616
  y: -0.03254606590596749
  z: 0.0
angular:
  x: 0.0
  y: 0.0
  z: -3.418688495009377e-18
---
linear:
  x: 0.2117371941532781
  y: -0.03238333557643803
  z: 0.0
angular:
  x: 0.0
  y: 0.0
  z: -1.1755265858523956e-18
---
linear:
  x: 0.21067850818251402
  y: -0.032221418898556155
  z: 0.0
angular:
  x: 0.0
  y: 0.0
  z: -1.177006036777259e-18
---
linear:
  x: 0.20962511564253464
  y: -0.03206031180406371
  z: 0.0
angular:
  x: 0.0
  y: 0.0
  z: -1.298370297094639e-19
---
linear:
  x: 0.2085769900633932
  y: -0.03190001024504374
  z: 0.0
angular:
  x: 0.0
  y: 0.0
  z: -3.4013828137705882e-18
---
linear:
  x: 0.20753410511307846
  y: -0.031740510193818856
  z: 0.0
angular:
  x: 0.0
  y: 0.0
  z: 4.4349196073203905e-19
---
linear:
  x: 0.2064964345884322
  y: -0.0315818076428501
  z: 0.0
angular:
  x: 0.0
  y: 0.0
  z: -1.1829361969351476e-18
---
linear:
  x: 0.20546395241457527
  y: -0.03142389860463618
  z: 0.0
angular:
  x: 0.0
  y: 0.0
  z: 4.277867519667794e-19
---
linear:
  x: 0.2043713757192739
  y: -0.030932312210110453
  z: 0.0
angular:
  x: 0.0
  y: 0.0
  z: -0.00018640178052752496
---
linear:
  x: 0.20321614209715583
  y: -0.030098360529853648
  z: 0.0
angular:
  x: 0.0
  y: 0.0
  z: -0.0005672789317659192
---
linear:
  x: 0.2020654263626309
  y: -0.029266945569144647
  z: 0.0
angular:
  x: 0.0
  y: 0.0
  z: -0.0009515251958429879
---
linear:
  x: 0.20091921325224382
  y: -0.028438150822406107
  z: 0.0
angular:
  x: 0.0
  y: 0.0
  z: -0.001339103225421065
---
linear:
  x: 0.19977748913164195
  y: -0.027612059498007473
  z: 0.0
angular:
  x: 0.0
  y: 0.0
  z: -0.0017299743383191294
---
linear:
  x: 0.19864024200559038
  y: -0.026788754452115655
  z: 0.0
angular:
  x: 0.0
  y: 0.0
  z: -0.002124098537272261
---
linear:
  x: 0.197507461528891
  y: -0.025968318121472
  z: 0.0
angular:
  x: 0.0
  y: 0.0
  z: -0.002521434530945491
---
linear:
  x: 0.1963791390120221
  y: -0.02515083245107564
  z: 0.0
angular:
  x: 0.0
  y: 0.0
  z: -0.0029219397599969357
---
linear:
  x: 0.19525526741665972
  y: -0.024336378829410553
  z: 0.0
angular:
  x: 0.0
  y: 0.0
  z: -0.0033255704207132536
---
linear:
  x: 0.19413584136969983
  y: -0.023525038017078732
  z: 0.0
angular:
  x: 0.0
  y: 0.0
  z: -0.0037322814927788755
---
linear:
  x: 0.19302085715347356
  y: -0.022716890079619006
  z: 0.0
angular:
  x: 0.0
  y: 0.0
  z: -0.004142026769005
---
linear:
  x: 0.19191031270905873
  y: -0.021912014315688243
  z: 0.0
angular:
  x: 0.0
  y: 0.0
  z: -0.004554758886946499
---
linear:
  x: 0.19080420762787317
  y: -0.021110489191080262
  z: 0.0
angular:
  x: 0.0
  y: 0.0
  z: -0.004970429360502878
---
linear:
  x: 0.1897025431550716
  y: -0.02031239226861947
  z: 0.0
angular:
  x: 0.0
  y: 0.0
  z: -0.0053889886152551384
---
linear:
  x: 0.18860532217011922
  y: -0.01951780013986398
  z: 0.0
angular:
  x: 0.0
  y: 0.0
  z: -0.0058103860254549835
---
linear:
  x: 0.1875125491866804
  y: -0.01872678836000857
  z: 0.0
angular:
  x: 0.0
  y: 0.0
  z: -0.006234569949573018
---
linear:
  x: 0.1864242303387911
  y: -0.017939431374651132
  z: 0.0
angular:
  x: 0.0
  y: 0.0
  z: -0.0066614877746352325
---
linear:
  x: 0.1853403733655203
  y: -0.017155802461737972
  z: 0.0
angular:
  x: 0.0
  y: 0.0
  z: -0.007091085951886097
---
linear:
  x: 0.18426098759827553
  y: -0.01637597365792543
  z: 0.0
angular:
  x: 0.0
  y: 0.0
  z: -0.007523310044403719
---
linear:
  x: 0.18318608394121377
  y: -0.015600015702337666
  z: 0.0
angular:
  x: 0.0
  y: 0.0
  z: -0.00795810476718592
---
linear:
  x: 0.18211567485604518
  y: -0.014827997966561946
  z: 0.0
angular:
  x: 0.0
  y: 0.0
  z: -0.008395414035358253
---
linear:
  x: 0.18104977434115715
  y: -0.014059988394026895
  z: 0.0
angular:
  x: 0.0
  y: 0.0
  z: -0.008835181012149692
---
linear:
  x: 0.17998839790360546
  y: -0.013296053440548022
  z: 0.0
angular:
  x: 0.0
  y: 0.0
  z: -0.009277348154400789
---
linear:
  x: 0.17893156254152037
  y: -0.01253625801473078
  z: 0.0
angular:
  x: 0.0
  y: 0.0
  z: -0.009721857263322427
---
linear:
  x: 0.17787928671767622
  y: -0.011780665421895264
  z: 0.0
angular:
  x: 0.0
  y: 0.0
  z: -0.010168649533824084
---
linear:
  x: 0.17683159032787202
  y: -0.01102933730053951
  z: 0.0
angular:
  x: 0.0
  y: 0.0
  z: -0.010617665610385426
---
linear:
  x: 0.17578849467299093
  y: -0.010282333576317821
  z: 0.0
angular:
  x: 0.0
  y: 0.0
  z: -0.011068845634581903
---
linear:
  x: 0.17475002243106846
  y: -0.009539712405256674
  z: 0.0
angular:
  x: 0.0
  y: 0.0
  z: -0.011522129301344067
---
linear:
  x: 0.17371619762448512
  y: -0.00880153012281466
  z: 0.0
angular:
  x: 0.0
  y: 0.0
  z: -0.011977455913253898
---
linear:
  x: 0.17268704558351863
  y: -0.008067841197646737
  z: 0.0
angular:
  x: 0.0
  y: 0.0
  z: -0.01243476443415006
---
linear:
  x: 0.17166259291424685
  y: -0.0073386981816767095
  z: 0.0
angular:
  x: 0.0
  y: 0.0
  z: -0.012893993546508865
---
linear:
  x: 0.17064286745858692
  y: -0.006614151666045887
  z: 0.0
angular:
  x: 0.0
  y: 0.0
  z: -0.013355081708201152
---
linear:
  x: 0.16962789826080626
  y: -0.00589425024183141
  z: 0.0
angular:
  x: 0.0
  y: 0.0
  z: -0.013817967206848405
---
linear:
  x: 0.16861771552970464
  y: -0.00517904045835697
  z: 0.0
angular:
  x: 0.0
  y: 0.0
  z: -0.014282588217741405
---
linear:
  x: 0.16761235059113397
  y: -0.004468566782459627
  z: 0.0
angular:
  x: 0.0
  y: 0.0
  z: -0.014748882864309774
---
linear:
  x: 0.16661183585625916
  y: -0.003762871569454095
  z: 0.0
angular:
  x: 0.0
  y: 0.0
  z: -0.015216789270274103
---
linear:
  x: 0.16561620477364758
  y: -0.003061995025803329
  z: 0.0
angular:
  x: 0.0
  y: 0.0
  z: -0.01568624562183002
---
linear:
  x: 0.16462549179260386
  y: -0.0023659751802824185
  z: 0.0
angular:
  x: 0.0
  y: 0.0
  z: -0.01615719022339244
---
linear:
  x: 0.16363973231129714
  y: -0.0016748478575126827
  z: 0.0
angular:
  x: 0.0
  y: 0.0
  z: -0.016629561554648037
---
linear:
  x: 0.16265896264376198
  y: -0.0009886466508880587
  z: 0.0
angular:
  x: 0.0
  y: 0.0
  z: -0.017103298329879193
---
linear:
  x: 0.16168321996445467
  y: -0.00030740290106424716
  z: 0.0
angular:
  x: 0.0
  y: 0.0
  z: -0.01757833955354683
---
linear:
  x: 0.1607125422739421
  y: 0.00036885432096394656
  z: 0.0
angular:
  x: 0.0
  y: 0.0
  z: -0.018054624576094063
---
linear:
  x: 0.15974696834613686
  y: 0.0010400982384055893
  z: 0.0
angular:
  x: 0.0
  y: 0.0
  z: -0.018532093154902177
---
linear:
  x: 0.15878653768428136
  y: 0.0017063043728169681
  z: 0.0
angular:
  x: 0.0
  y: 0.0
  z: -0.01901068550243477
---
linear:
  x: 0.15783129048062736
  y: 0.0023674505656469053
  z: 0.0
angular:
  x: 0.0
  y: 0.0
  z: -0.019490342349569225
---
linear:
  x: 0.15688126756323614
  y: 0.003023516979113818
  z: 0.0
angular:
  x: 0.0
  y: 0.0
  z: -0.01997100499268299
---
linear:
  x: 0.1559365103555057
  y: 0.0036744861099910985
  z: 0.0
angular:
  x: 0.0
  y: 0.0
  z: -0.02045261535385355
---
linear:
  x: 0.1549970608311444
  y: 0.004320342787372011
  z: 0.0
angular:
  x: 0.0
  y: 0.0
  z: -0.020935116028476822
---
linear:
  x: 0.15406296146555323
  y: 0.0049610741788009005
  z: 0.0
angular:
  x: 0.0
  y: 0.0
  z: -0.02141845034126323
---
linear:
  x: 0.15313425519464133
  y: 0.005596669782850195
  z: 0.0
angular:
  x: 0.0
  y: 0.0
  z: -0.02190256239218572
---
linear:
  x: 0.1522109853658376
  y: 0.006227121433840173
  z: 0.0
angular:
  x: 0.0
  y: 0.0
  z: -0.02238739711335348
---
linear:
  x: 0.15129319570188957
  y: 0.006852423285692311
  z: 0.0
angular:
  x: 0.0
  y: 0.0
  z: -0.02287290030983597
---
linear:
  x: 0.15038093025063518
  y: 0.007472571812988796
  z: 0.0
angular:
  x: 0.0
  y: 0.0
  z: -0.02335901871531355
---
linear:
  x: 0.1494742333443678
  y: 0.008087565789384826
  z: 0.0
angular:
  x: 0.0
  y: 0.0
  z: -0.02384570002989134
---
linear:
  x: 0.1485731495635508
  y: 0.008697406280980398
  z: 0.0
angular:
  x: 0.0
  y: 0.0
  z: -0.024332892970873977
---
linear:
  x: 0.14767772368615137
  y: 0.009302096629896126
  z: 0.0
angular:
  x: 0.0
  y: 0.0
  z: -0.024820547315957977
---
linear:
  x: 0.14678800065784584
  y: 0.00990164243536236
  z: 0.0
angular:
  x: 0.0
  y: 0.0
  z: -0.02530861394546235
---
linear:
  x: 0.1459040255475788
  y: 0.010496051528477286
  z: 0.0
angular:
  x: 0.0
  y: 0.0
  z: -0.025797044878259862
---
linear:
  x: 0.14502584351119877
  y: 0.011085333958169723
  z: 0.0
angular:
  x: 0.0
  y: 0.0
  z: -0.026285793319029794
---
linear:
  x: 0.144153499756808
  y: 0.01166950196103374
  z: 0.0
angular:
  x: 0.0
  y: 0.0
  z: -0.02677481369069869
---
linear:
  x: 0.14328703950590385
  y: 0.012248569934976219
  z: 0.0
angular:
  x: 0.0
  y: 0.0
  z: -0.02726406167185803
---
linear:
  x: 0.14242650796575296
  y: 0.01282255441542112
  z: 0.0
angular:
  x: 0.0
  y: 0.0
  z: -0.0277534942343922
---
linear:
  x: 0.14157195029058617
  y: 0.013391474039710992
  z: 0.0
angular:
  x: 0.0
  y: 0.0
  z: -0.02824306967281442
---
linear:
  x: 0.1407234115545678
  y: 0.013955349518842317
  z: 0.0
angular:
  x: 0.0
  y: 0.0
  z: -0.02873274763908046
---
linear:
  x: 0.13988093672483012
  y: 0.014514203600788327
  z: 0.0
angular:
  x: 0.0
  y: 0.0
  z: -0.029222489169100162
---
linear:
  x: 0.1390445706251251
  y: 0.015068061041553747
  z: 0.0
angular:
  x: 0.0
  y: 0.0
  z: -0.029712256717971442
---
linear:
  x: 0.13821435792142447
  y: 0.015616948559429841
  z: 0.0
angular:
  x: 0.0
  y: 0.0
  z: -0.030202014177247615
---
linear:
  x: 0.1373903430860603
  y: 0.016160894808236567
  z: 0.0
angular:
  x: 0.0
  y: 0.0
  z: -0.03069172691085855
---
linear:
  x: 0.1365725703869134
  y: 0.016699930326631723
  z: 0.0
angular:
  x: 0.0
  y: 0.0
  z: -0.03118136176849478
---
linear:
  x: 0.13576108385398541
  y: 0.017234087509042713
  z: 0.0
angular:
  x: 0.0
  y: 0.0
  z: -0.031670887117689825
---
linear:
  x: 0.13495592727065586
  y: 0.01776340055487945
  z: 0.0
angular:
  x: 0.0
  y: 0.0
  z: -0.03216027285553962
---
linear:
  x: 0.1341571441511782
  y: 0.01828790543181504
  z: 0.0
angular:
  x: 0.0
  y: 0.0
  z: -0.032649490433625465
---
linear:
  x: 0.1333647777255047
  y: 0.018807639831496383
  z: 0.0
angular:
  x: 0.0
  y: 0.0
  z: -0.03313851287318874
---
linear:
  x: 0.13257887092982915
  y: 0.01932264312351194
  z: 0.0
angular:
  x: 0.0
  y: 0.0
  z: -0.033627314780903535
---
linear:
  x: 0.1317994663888299
  y: 0.019832956313121753
  z: 0.0
angular:
  x: 0.0
  y: 0.0
  z: -0.03411587236429778
---
linear:
  x: 0.13102660641067992
  y: 0.02033862199263645
  z: 0.0
angular:
  x: 0.0
  y: 0.0
  z: -0.03460416344276951
---
linear:
  x: 0.13026033297763437
  y: 0.020839684298645907
  z: 0.0
angular:
  x: 0.0
  y: 0.0
  z: -0.03509216746132991
---
linear:
  x: 0.12950068774190057
  y: 0.02133618886316935
  z: 0.0
angular:
  x: 0.0
  y: 0.0
  z: -0.0355798654986745
---
linear:
  x: 0.12874771201842003
  y: 0.02182818276752249
  z: 0.0
angular:
  x: 0.0
  y: 0.0
  z: -0.03606724027750689
---
linear:
  x: 0.12800144678596714
  y: 0.022315714494056327
  z: 0.0
angular:
  x: 0.0
  y: 0.0
  z: -0.036554276168923434
---
linear:
  x: 0.1272619326873637
  y: 0.02279883387870668
  z: 0.0
angular:
  x: 0.0
  y: 0.0
  z: -0.0370409592006352
---
linear:
  x: 0.12652921002904
  y: 0.023277592065723666
  z: 0.0
angular:
  x: 0.0
  y: 0.0
  z: -0.03752727706276342
---
linear:
  x: 0.1258033187880975
  y: 0.023752041455816636
  z: 0.0
angular:
  x: 0.0
  y: 0.0
  z: -0.03801321910711585
---
linear:
  x: 0.1250842986167745
  y: 0.024222235660613815
  z: 0.0
angular:
  x: 0.0
  y: 0.0
  z: -0.03849877635290074
---
linear:
  x: 0.12437218885053065
  y: 0.02468822945331884
  z: 0.0
angular:
  x: 0.0
  y: 0.0
  z: -0.038983941484879034
---
linear:
  x: 0.1236670285206226
  y: 0.025150078723526207
  z: 0.0
angular:
  x: 0.0
  y: 0.0
  z: -0.039468708856363464
---
linear:
  x: 0.1229688563604982
  y: 0.02560784042407781
  z: 0.0
angular:
  x: 0.0
  y: 0.0
  z: -0.03995307448299033
---
linear:
  x: 0.12227771082641203
  y: 0.02606157253162323
  z: 0.0
angular:
  x: 0.0
  y: 0.0
  z: -0.040437036047254266
---
linear:
  x: 0.1216745088407494
  y: 0.02620113056143434
  z: 0.0
angular:
  x: 0.0
  y: 0.0
  z: -0.04064864456293974
---
linear:
  x: 0.12114739032400014
  y: 0.026067697754185302
  z: 0.0
angular:
  x: 0.0
  y: 0.0
  z: -0.04062096224413552
---
linear:
  x: 0.12062415530803905
  y: 0.025934868127387167
  z: 0.0
angular:
  x: 0.0
  y: 0.0
  z: -0.0405931601922778
---
linear:
  x: 0.12010477477600993
  y: 0.025802641701247176
  z: 0.0
angular:
  x: 0.0
  y: 0.0
  z: -0.04056524309968244
---
linear:
  x: 0.11958921997375163
  y: 0.025671018434177833
  z: 0.0
angular:
  x: 0.0
  y: 0.0
  z: -0.040537215635865036
---
linear:
  x: 0.1190774624089864
  y: 0.02553999822335703
  z: 0.0
angular:
  x: 0.0
  y: 0.0
  z: -0.0405090824507239
---
linear:
  x: 0.11856947385160028
  y: 0.025409580906689263
  z: 0.0
angular:
  x: 0.0
  y: 0.0
  z: -0.04048084817196778
---
linear:
  x: 0.1180652263294561
  y: 0.0252797662639898
  z: 0.0
angular:
  x: 0.0
  y: 0.0
  z: -0.04045251740655644
---
linear:
  x: 0.11756469212812634
  y: 0.025150554017564806
  z: 0.0
angular:
  x: 0.0
  y: 0.0
  z: -0.04042409474100163
---
linear:
  x: 0.11706784379157469
  y: 0.025021943835281696
  z: 0.0
angular:
  x: 0.0
  y: 0.0
  z: -0.04039558474172811
---
linear:
  x: 0.11657465412039997
  y: 0.024893935329662383
  z: 0.0
angular:
  x: 0.0
  y: 0.0
  z: -0.0403669919550613
---
linear:
  x: 0.11608509616917166
  y: 0.02476652806055572
  z: 0.0
angular:
  x: 0.0
  y: 0.0
  z: -0.04033832090755199
---
linear:
  x: 0.11559914324552342
  y: 0.02463972153611412
  z: 0.0
angular:
  x: 0.0
  y: 0.0
  z: -0.040309576106538944
---
linear:
  x: 0.11511676891163829
  y: 0.024513515213403416
  z: 0.0
angular:
  x: 0.0
  y: 0.0
  z: -0.04028076203964633
---
linear:
  x: 0.11463794698013646
  y: 0.024387908500672704
  z: 0.0
angular:
  x: 0.0
  y: 0.0
  z: -0.04025188317703136
---
linear:
  x: 0.11416265151392221
  y: 0.024262900757392465
  z: 0.0
angular:
  x: 0.0
  y: 0.0
  z: -0.04022294396928126
---
linear:
  x: 0.11369085682421415
  y: 0.024138491296487666
  z: 0.0
angular:
  x: 0.0
  y: 0.0
  z: -0.040193948849615635
---
linear:
  x: 0.11322253747131218
  y: 0.024014679383982673
  z: 0.0
angular:
  x: 0.0
  y: 0.0
  z: -0.04016490223302749
---
linear:
  x: 0.11275766826360628
  y: 0.02389146424231845
  z: 0.0
angular:
  x: 0.0
  y: 0.0
  z: -0.040135808517343885
---
linear:
  x: 0.11229622425184811
  y: 0.02376884504923666
  z: 0.0
angular:
  x: 0.0
  y: 0.0
  z: -0.04010667208403418
---
linear:
  x: 0.11183818073346047
  y: 0.023646820940337876
  z: 0.0
angular:
  x: 0.0
  y: 0.0
  z: -0.040077497296934966
---
linear:
  x: 0.11138351324986837
  y: 0.02352539100951052
  z: 0.0
angular:
  x: 0.0
  y: 0.0
  z: -0.04004828850376815
---
linear:
  x: 0.11093219758217492
  y: 0.02340455430988906
  z: 0.0
angular:
  x: 0.0
  y: 0.0
  z: -0.04001905003743352
---
linear:
  x: 0.11048420975510322
  y: 0.02328430985626206
  z: 0.0
angular:
  x: 0.0
  y: 0.0
  z: -0.039989786214458596
---
linear:
  x: 0.11003952603191361
  y: 0.02316465662356115
  z: 0.0
angular:
  x: 0.0
  y: 0.0
  z: -0.03996050133648599
---
linear:
  x: 0.10959812291461356
  y: 0.02304559355004775
  z: 0.0
angular:
  x: 0.0
  y: 0.0
  z: -0.03993119969087834
---
linear:
  x: 0.10915997714291999
  y: 0.022927119537438496
  z: 0.0
angular:
  x: 0.0
  y: 0.0
  z: -0.03990188555031469
---
linear:
  x: 0.10872506569361648
  y: 0.02280923345205775
  z: 0.0
angular:
  x: 0.0
  y: 0.0
  z: -0.03987256317370911
---
linear:
  x: 0.10829336577842463
  y: 0.022691934126038555
  z: 0.0
angular:
  x: 0.0
  y: 0.0
  z: -0.03984323680738543
---
linear:
  x: 0.10786485484286343
  y: 0.022575220357228767
  z: 0.0
angular:
  x: 0.0
  y: 0.0
  z: -0.039813910683919554
---
linear:
  x: 0.10743951056553934
  y: 0.022459090911313172
  z: 0.0
angular:
  x: 0.0
  y: 0.0
  z: -0.03978458902418855
---
linear:
  x: 0.10701731085796706
  y: 0.022343544522538405
  z: 0.0
angular:
  x: 0.0
  y: 0.0
  z: -0.03975527603604815
---
linear:
  x: 0.10659823386214011
  y: 0.022228579893815076
  z: 0.0
angular:
  x: 0.0
  y: 0.0
  z: -0.03972597591689907
---
linear:
  x: 0.10618225794913544
  y: 0.02211419569867752
  z: 0.0
angular:
  x: 0.0
  y: 0.0
  z: -0.03969669285289807
---
linear:
  x: 0.10576936172030249
  y: 0.022000390581354626
  z: 0.0
angular:
  x: 0.0
  y: 0.0
  z: -0.03966743101900795
---
linear:
  x: 0.1053595240030555
  y: 0.021887163157842563
  z: 0.0
angular:
  x: 0.0
  y: 0.0
  z: -0.03963819458074769
---
linear:
  x: 0.10495272385271405
  y: 0.021774512017233776
  z: 0.0
angular:
  x: 0.0
  y: 0.0
  z: -0.03960898769407767
---
linear:
  x: 0.10454894054912693
  y: 0.021662435721314953
  z: 0.0
angular:
  x: 0.0
  y: 0.0
  z: -0.039579814506099355
---
linear:
  x: 0.1041481535971406
  y: 0.02155093280690405
  z: 0.0
angular:
  x: 0.0
  y: 0.0
  z: -0.039550679154373776
---
linear:
  x: 0.10375034272625491
  y: 0.021440001785926026
  z: 0.0
angular:
  x: 0.0
  y: 0.0
  z: -0.0395215857697997
---
linear:
  x: 0.1033554878856281
  y: 0.021329641145867963
  z: 0.0
angular:
  x: 0.0
  y: 0.0
  z: -0.03949253847496766
---
linear:
  x: 0.10296356924831976
  y: 0.021219849350978395
  z: 0.0
angular:
  x: 0.0
  y: 0.0
  z: -0.039463541385537565
---
linear:
  x: 0.10257456720796819
  y: 0.02111062484290951
  z: 0.0
angular:
  x: 0.0
  y: 0.0
  z: -0.039434598611587095
---
linear:
  x: 0.10218846237649924
  y: 0.02100196604168138
  z: 0.0
angular:
  x: 0.0
  y: 0.0
  z: -0.03940571425636105
---
linear:
  x: 0.101805235584377
  y: 0.020893871346240312
  z: 0.0
angular:
  x: 0.0
  y: 0.0
  z: -0.03937689241877475
---
linear:
  x: 0.10142486788105025
  y: 0.02078633913512053
  z: 0.0
angular:
  x: 0.0
  y: 0.0
  z: -0.03934813719282843
---
linear:
  x: 0.10104734053208375
  y: 0.02067936776709394
  z: 0.0
angular:
  x: 0.0
  y: 0.0
  z: -0.039319452667674636
---
linear:
  x: 0.100672635019099
  y: 0.02057295558202011
  z: 0.0
angular:
  x: 0.0
  y: 0.0
  z: -0.03929084293018667
---
linear:
  x: 0.10030073303707435
  y: 0.02046710090155423
  z: 0.0
angular:
  x: 0.0
  y: 0.0
  z: -0.03926231206361299
---
linear:
  x: 0.09993161649770023
  y: 0.02036180203002997
  z: 0.0
angular:
  x: 0.0
  y: 0.0
  z: -0.039233864149438594
---
linear:
  x: 0.09956526752447459
  y: 0.02025705725463271
  z: 0.0
angular:
  x: 0.0
  y: 0.0
  z: -0.039205503266881186
---
linear:
  x: 0.0992016684523565
  y: 0.02015286484594902
  z: 0.0
angular:
  x: 0.0
  y: 0.0
  z: -0.03917723349503767
---
linear:
  x: 0.09884080182917898
  y: 0.020049223059268546
  z: 0.0
angular:
  x: 0.0
  y: 0.0
  z: -0.03914905891186883
---
linear:
  x: 0.09848265041407081
  y: 0.019946130135121126
  z: 0.0
angular:
  x: 0.0
  y: 0.0
  z: -0.039120983595942654
---
linear:
  x: 0.09812719717461635
  y: 0.019843584299276483
  z: 0.0
angular:
  x: 0.0
  y: 0.0
  z: -0.0390930116272378
---
linear:
  x: 0.0977744252886122
  y: 0.01974158376424082
  z: 0.0
angular:
  x: 0.0
  y: 0.0
  z: -0.03906514708680717
---
linear:
  x: 0.09742431814193274
  y: 0.0196401267279447
  z: 0.0
angular:
  x: 0.0
  y: 0.0
  z: -0.03903739405796941
---
linear:
  x: 0.0970768593283032
  y: 0.019539211377709573
  z: 0.0
angular:
  x: 0.0
  y: 0.0
  z: -0.03900975662791788
---
linear:
  x: 0.0967320326495419
  y: 0.019438835887641823
  z: 0.0
angular:
  x: 0.0
  y: 0.0
  z: -0.038982238886777945
---
linear:
  x: 0.09638982211138516
  y: 0.019338998420050137
  z: 0.0
angular:
  x: 0.0
  y: 0.0
  z: -0.03895484492942993
---
linear:
  x: 0.09605021192890786
  y: 0.01923969712749792
  z: 0.0
angular:
  x: 0.0
  y: 0.0
  z: -0.038927578855799096
---
linear:
  x: 0.09571318651883567
  y: 0.019140930151210014
  z: 0.0
angular:
  x: 0.0
  y: 0.0
  z: -0.038900444772339664
---
linear:
  x: 0.09537873050529563
  y: 0.019042695623253284
  z: 0.0
angular:
  x: 0.0
  y: 0.0
  z: -0.03887344679190568
---
linear:
  x: 0.095046828713635
  y: 0.01894499166613182
  z: 0.0
angular:
  x: 0.0
  y: 0.0
  z: -0.03884658903428336
---
linear:
  x: 0.0947174661764884
  y: 0.018847816393181928
  z: 0.0
angular:
  x: 0.0
  y: 0.0
  z: -0.03881987562844233
---
linear:
  x: 0.09439062812450247
  y: 0.018751167910180375
  z: 0.0
angular:
  x: 0.0
  y: 0.0
  z: -0.03879331071188851
---
linear:
  x: 0.0940662999952071
  y: 0.018655044314528735
  z: 0.0
angular:
  x: 0.0
  y: 0.0
  z: -0.03876689843195439
---
linear:
  x: 0.0937444674251283
  y: 0.01855944369671744
  z: 0.0
angular:
  x: 0.0
  y: 0.0
  z: -0.03874064294701248
---
linear:
  x: 0.09342511625454733
  y: 0.018464364140599397
  z: 0.0
angular:
  x: 0.0
  y: 0.0
  z: -0.03871454842685511
---
linear:
  x: 0.09310823252260994
  y: 0.018369803722943657
  z: 0.0
angular:
  x: 0.0
  y: 0.0
  z: -0.03868861905343978
---
linear:
  x: 0.0927938024705237
  y: 0.01827576051538019
  z: 0.0
angular:
  x: 0.0
  y: 0.0
  z: -0.03866285902240738
---
linear:
  x: 0.09248181254124246
  y: 0.01818223258380602
  z: 0.0
angular:
  x: 0.0
  y: 0.0
  z: -0.038637272543163806
---
linear:
  x: 0.09217224937437153
  y: 0.018089217989407227
  z: 0.0
angular:
  x: 0.0
  y: 0.0
  z: -0.038611863840613
---
linear:
  x: 0.09186509981156912
  y: 0.017996714788518074
  z: 0.0
angular:
  x: 0.0
  y: 0.0
  z: -0.03858663715463593
---
linear:
  x: 0.09156035089472762
  y: 0.017904721033375644
  z: 0.0
angular:
  x: 0.0
  y: 0.0
  z: -0.038561596743646114
---
linear:
  x: 0.09125798986270953
  y: 0.01781323477314895
  z: 0.0
angular:
  x: 0.0
  y: 0.0
  z: -0.03853674688233043
---
linear:
  x: 0.09095800415549582
  y: 0.017722254052835947
  z: 0.0
angular:
  x: 0.0
  y: 0.0
  z: -0.03851209186500955
---
linear:
  x: 0.09066038141137796
  y: 0.017631776915130883
  z: 0.0
angular:
  x: 0.0
  y: 0.0
  z: -0.038487636005790624
---
linear:
  x: 0.09036510946735753
  y: 0.01754180140112765
  z: 0.0
angular:
  x: 0.0
  y: 0.0
  z: -0.038463383639802035
---
linear:
  x: 0.09007217635941103
  y: 0.017452325548004664
  z: 0.0
angular:
  x: 0.0
  y: 0.0
  z: -0.038439339122934506
---
linear:
  x: 0.0897815703213138
  y: 0.01736334739282557
  z: 0.0
angular:
  x: 0.0
  y: 0.0
  z: -0.03841550683548196
---
linear:
  x: 0.08949327978729497
  y: 0.017274864970616335
  z: 0.0
angular:
  x: 0.0
  y: 0.0
  z: -0.038391891180442964
---
linear:
  x: 0.08920729338875659
  y: 0.017186876316223874
  z: 0.0
angular:
  x: 0.0
  y: 0.0
  z: -0.03836849658653117
---
linear:
  x: 0.08892359995818272
  y: 0.017099379463426382
  z: 0.0
angular:
  x: 0.0
  y: 0.0
  z: -0.03834532750851751
---
linear:
  x: 0.08864218852333829
  y: 0.01701237244590354
  z: 0.0
angular:
  x: 0.0
  y: 0.0
  z: -0.03832238842810156
---
linear:
  x: 0.08836304831454649
  y: 0.016925853297420794
  z: 0.0
angular:
  x: 0.0
  y: 0.0
  z: -0.038299683856068474
---
linear:
  x: 0.08808616876010358
  y: 0.016839820052892397
  z: 0.0
angular:
  x: 0.0
  y: 0.0
  z: -0.03827721833203605
---
linear:
  x: 0.08781153948664266
  y: 0.016754270747870344
  z: 0.0
angular:
  x: 0.0
  y: 0.0
  z: -0.038254996427061774
---
linear:
  x: 0.08753915032291455
  y: 0.01666920341904109
  z: 0.0
angular:
  x: 0.0
  y: 0.0
  z: -0.03823302274426697
---
linear:
  x: 0.08726899129707412
  y: 0.016584616104640727
  z: 0.0
angular:
  x: 0.0
  y: 0.0
  z: -0.0382113019195615
---
linear:
  x: 0.08700105263661773
  y: 0.016500506844642677
  z: 0.0
angular:
  x: 0.0
  y: 0.0
  z: -0.03818983862334915
---
linear:
  x: 0.08673532477095253
  y: 0.016416873682735304
  z: 0.0
angular:
  x: 0.0
  y: 0.0
  z: -0.03816863756302551
---
linear:
  x: 0.08647179833181257
  y: 0.016333714663108158
  z: 0.0
angular:
  x: 0.0
  y: 0.0
  z: -0.03814770348209211
---
linear:
  x: 0.08621046415083665
  y: 0.016251027833608586
  z: 0.0
angular:
  x: 0.0
  y: 0.0
  z: -0.03812704116306209
---
linear:
  x: 0.08595131326453789
  y: 0.0161688112462078
  z: 0.0
angular:
  x: 0.0
  y: 0.0
  z: -0.03810665542850325
---
linear:
  x: 0.0856943369112657
  y: 0.016087062955394187
  z: 0.0
angular:
  x: 0.0
  y: 0.0
  z: -0.03808655114189339
---
linear:
  x: 0.08543952653308408
  y: 0.01600578102007334
  z: 0.0
angular:
  x: 0.0
  y: 0.0
  z: -0.03806673321054161
---
linear:
  x: 0.08518687377820791
  y: 0.015924963502794962
  z: 0.0
angular:
  x: 0.0
  y: 0.0
  z: -0.038047206585343926
---
linear:
  x: 0.08493637049782986
  y: 0.01584460847102498
  z: 0.0
angular:
  x: 0.0
  y: 0.0
  z: -0.038027976263642245
---
linear:
  x: 0.08468800875195832
  y: 0.01576471399592718
  z: 0.0
angular:
  x: 0.0
  y: 0.0
  z: -0.03800904728930447
---
linear:
  x: 0.08444178080687169
  y: 0.01568527815560875
  z: 0.0
angular:
  x: 0.0
  y: 0.0
  z: -0.03799042475647327
---
linear:
  x: 0.08419767913644392
  y: 0.015606299031444289
  z: 0.0
angular:
  x: 0.0
  y: 0.0
  z: -0.037972113809291066
---
linear:
  x: 0.08395569642598263
  y: 0.015527774711624106
  z: 0.0
angular:
  x: 0.0
  y: 0.0
  z: -0.03795411964427899
---
linear:
  x: 0.08371582556770253
  y: 0.015449703290466328
  z: 0.0
angular:
  x: 0.0
  y: 0.0
  z: -0.03793644751238293
---
linear:
  x: 0.0834780596686567
  y: 0.01537208286690952
  z: 0.0
angular:
  x: 0.0
  y: 0.0
  z: -0.037919102720259286
---
linear:
  x: 0.08324239204782405
  y: 0.015294911547705894
  z: 0.0
angular:
  x: 0.0
  y: 0.0
  z: -0.03790209063208178
---
linear:
  x: 0.08300881623752343
  y: 0.015218187446085312
  z: 0.0
angular:
  x: 0.0
  y: 0.0
  z: -0.03788541667194715
---
linear:
  x: 0.08277732598696647
  y: 0.015141908681647864
  z: 0.0
angular:
  x: 0.0
  y: 0.0
  z: -0.037869086325051
---
linear:
  x: 0.08254791526177063
  y: 0.015066073382478116
  z: 0.0
angular:
  x: 0.0
  y: 0.0
  z: -0.037853105139677254
---
linear:
  x: 0.08232057824573609
  y: 0.01499067968234458
  z: 0.0
angular:
  x: 0.0
  y: 0.0
  z: -0.03783747873002783
---
linear:
  x: 0.08209530934446535
  y: 0.014915725724244702
  z: 0.0
angular:
  x: 0.0
  y: 0.0
  z: -0.03782221277740933
---
linear:
  x: 0.08187210318432636
  y: 0.01484120965918916
  z: 0.0
angular:
  x: 0.0
  y: 0.0
  z: -0.03780731303285941
---
linear:
  x: 0.08165095461566983
  y: 0.0147671296455666
  z: 0.0
angular:
  x: 0.0
  y: 0.0
  z: -0.03779278531880728
---
linear:
  x: 0.08143185871564732
  y: 0.014693483850870626
  z: 0.0
angular:
  x: 0.0
  y: 0.0
  z: -0.03777863553133459
---
linear:
  x: 0.08121481078787031
  y: 0.014620270451710904
  z: 0.0
angular:
  x: 0.0
  y: 0.0
  z: -0.03776486964340565
---
linear:
  x: 0.08099980636651252
  y: 0.014547487633577336
  z: 0.0
angular:
  x: 0.0
  y: 0.0
  z: -0.03775149370547677
---
linear:
  x: 0.08078684121824733
  y: 0.014475133590847173
  z: 0.0
angular:
  x: 0.0
  y: 0.0
  z: -0.03773851384963358
---
linear:
  x: 0.08057591134248658
  y: 0.014403206528212927
  z: 0.0
angular:
  x: 0.0
  y: 0.0
  z: -0.037725936290762624
---
linear:
  x: 0.08036701297722626
  y: 0.014331704659730842
  z: 0.0
angular:
  x: 0.0
  y: 0.0
  z: -0.037713767329781316
---
linear:
  x: 0.0801601425987011
  y: 0.0142606262096662
  z: 0.0
angular:
  x: 0.0
  y: 0.0
  z: -0.037702013356242015
---
linear:
  x: 0.07995529692520868
  y: 0.014189969412872414
  z: 0.0
angular:
  x: 0.0
  y: 0.0
  z: -0.03769068084990052
---
linear:
  x: 0.07975247291906234
  y: 0.014119732514642904
  z: 0.0
angular:
  x: 0.0
  y: 0.0
  z: -0.03767977638561196
---
linear:
  x: 0.07955166779179423
  y: 0.014049913771867973
  z: 0.0
angular:
  x: 0.0
  y: 0.0
  z: -0.03766930663417999
---
linear:
  x: 0.07935287900216503
  y: 0.013980511451177537
  z: 0.0
angular:
  x: 0.0
  y: 0.0
  z: -0.037659278365597744
---
linear:
  x: 0.07915610426562057
  y: 0.013911523831811759
  z: 0.0
angular:
  x: 0.0
  y: 0.0
  z: -0.03764969845281758
---
linear:
  x: 0.07896134155178812
  y: 0.013842949204211167
  z: 0.0
angular:
  x: 0.0
  y: 0.0
  z: -0.03764057387465208
---
linear:
  x: 0.07876858909271856
  y: 0.013774785871485975
  z: 0.0
angular:
  x: 0.0
  y: 0.0
  z: -0.037631911718147656
---
linear:
  x: 0.07857784538160939
  y: 0.013707032146954108
  z: 0.0
angular:
  x: 0.0
  y: 0.0
  z: -0.03762371918227376
---
linear:
  x: 0.07838910918074822
  y: 0.013639686359527404
  z: 0.0
angular:
  x: 0.0
  y: 0.0
  z: -0.03761600358229191
---
linear:
  x: 0.07820237952149496
  y: 0.013572746847781973
  z: 0.0
angular:
  x: 0.0
  y: 0.0
  z: -0.037608772350964444
---
linear:
  x: 0.0780176557124147
  y: 0.013506211965865307
  z: 0.0
angular:
  x: 0.0
  y: 0.0
  z: -0.03760203304429635
---
linear:
  x: 0.07783493733907021
  y: 0.013440080079330037
  z: 0.0
angular:
  x: 0.0
  y: 0.0
  z: -0.03759579334438691
---
linear:
  x: 0.07765422427086459
  y: 0.013374349567932398
  z: 0.0
angular:
  x: 0.0
  y: 0.0
  z: -0.037590061062504836
---
linear:
  x: 0.07747551666583553
  y: 0.013309018825763744
  z: 0.0
angular:
  x: 0.0
  y: 0.0
  z: -0.03758484414378572
---
linear:
  x: 0.07729881497289806
  y: 0.01324408626083758
  z: 0.0
angular:
  x: 0.0
  y: 0.0
  z: -0.037580150671008304
---
linear:
  x: 0.07712411993839549
  y: 0.013179550295725484
  z: 0.0
angular:
  x: 0.0
  y: 0.0
  z: -0.03757598886971041
---
linear:
  x: 0.07695143261190407
  y: 0.013115409366368468
  z: 0.0
angular:
  x: 0.0
  y: 0.0
  z: -0.0375723671100085
---
linear:
  x: 0.07678075434947704
  y: 0.013051661926083022
  z: 0.0
angular:
  x: 0.0
  y: 0.0
  z: -0.03756929391368397
---
linear:
  x: 0.07661208681992054
  y: 0.012988306441303228
  z: 0.0
angular:
  x: 0.0
  y: 0.0
  z: -0.03756677795681372
---
linear:
  x: 0.07644543200925653
  y: 0.012925341395936308
  z: 0.0
angular:
  x: 0.0
  y: 0.0
  z: -0.03756482807589375
---
linear:
  x: 0.07628079223010079
  y: 0.0128627652888706
  z: 0.0
angular:
  x: 0.0
  y: 0.0
  z: -0.03756345327186198
---
linear:
  x: 0.07611817012261098
  y: 0.012800576635327843
  z: 0.0
angular:
  x: 0.0
  y: 0.0
  z: -0.03756266271457648
---
linear:
  x: 0.07595756866605685
  y: 0.01273877396668208
  z: 0.0
angular:
  x: 0.0
  y: 0.0
  z: -0.03756246574925979
---
linear:
  x: 0.07579899117957184
  y: 0.012677355832822762
  z: 0.0
angular:
  x: 0.0
  y: 0.0
  z: -0.03756287190103271
---
linear:
  x: 0.07564244133610035
  y: 0.012616320799065231
  z: 0.0
angular:
  x: 0.0
  y: 0.0
  z: -0.03756389088077325
---
linear:
  x: 0.07548792316123919
  y: 0.01255566744939405
  z: 0.0
angular:
  x: 0.0
  y: 0.0
  z: -0.03756553259085104
---
linear:
  x: 0.07533544104803173
  y: 0.012495394385779299
  z: 0.0
angular:
  x: 0.0
  y: 0.0
  z: -0.0375678071301681
---
linear:
  x: 0.07518499975965473
  y: 0.012435500227829318
  z: 0.0
angular:
  x: 0.0
  y: 0.0
  z: -0.037570724801345864
---
linear:
  x: 0.07503660444077198
  y: 0.012375983615260431
  z: 0.0
angular:
  x: 0.0
  y: 0.0
  z: -0.037574296116985824
---
linear:
  x: 0.07489026062260559
  y: 0.012316843205459364
  z: 0.0
angular:
  x: 0.0
  y: 0.0
  z: -0.03757853180528186
---
linear:
  x: 0.07474597423278781
  y: 0.012258077675707527
  z: 0.0
angular:
  x: 0.0
  y: 0.0
  z: -0.03758344281760782
---
linear:
  x: 0.0746037516070704
  y: 0.012199685724018397
  z: 0.0
angular:
  x: 0.0
  y: 0.0
  z: -0.037589040335206415
---
linear:
  x: 0.07446359949229765
  y: 0.012141666067610036
  z: 0.0
angular:
  x: 0.0
  y: 0.0
  z: -0.03759533577676819
---
linear:
  x: 0.07432552506363443
  y: 0.01208401744523722
  z: 0.0
angular:
  x: 0.0
  y: 0.0
  z: -0.03760234080488123
---
linear:
  x: 0.07418953592814106
  y: 0.0120267386161149
  z: 0.0
angular:
  x: 0.0
  y: 0.0
  z: -0.03761006733535117
---
linear:
  x: 0.07405564013944543
  y: 0.011969828362414283
  z: 0.0
angular:
  x: 0.0
  y: 0.0
  z: -0.0376185275441487
---
linear:
  x: 0.07392384620573075
  y: 0.011913285486564137
  z: 0.0
angular:
  x: 0.0
  y: 0.0
  z: -0.03762773387601114
---
linear:
  x: 0.07379416310427764
  y: 0.01185710881590653
  z: 0.0
angular:
  x: 0.0
  y: 0.0
  z: -0.03763769905388283
---
linear:
  x: 0.07366660028885025
  y: 0.011801297198231569
  z: 0.0
angular:
  x: 0.0
  y: 0.0
  z: -0.03764843608607327
---
linear:
  x: 0.07354116770616298
  y: 0.011745849507842205
  z: 0.0
angular:
  x: 0.0
  y: 0.0
  z: -0.037659958277712485
---
linear:
  x: 0.07341787580526075
  y: 0.011690764640353301
  z: 0.0
angular:
  x: 0.0
  y: 0.0
  z: -0.037672279238438786
---
linear:
  x: 0.07329673555441912
  y: 0.011636041518013972
  z: 0.0
angular:
  x: 0.0
  y: 0.0
  z: -0.03768541289455498
---
linear:
  x: 0.07317775845063036
  y: 0.011581679087583658
  z: 0.0
angular:
  x: 0.0
  y: 0.0
  z: -0.03769937349698381
---
linear:
  x: 0.07306095653681378
  y: 0.011527676322152326
  z: 0.0
angular:
  x: 0.0
  y: 0.0
  z: -0.037714175635018485
---
linear:
  x: 0.07294634241744344
  y: 0.011474032221203568
  z: 0.0
angular:
  x: 0.0
  y: 0.0
  z: -0.03772983424472481
---
linear:
  x: 0.07283392927096889
  y: 0.011420745810636325
  z: 0.0
angular:
  x: 0.0
  y: 0.0
  z: -0.03774636462277178
---
linear:
  x: 0.07272373086762783
  y: 0.011367816145075831
  z: 0.0
angular:
  x: 0.0
  y: 0.0
  z: -0.03776378243625836
---
linear:
  x: 0.07261576158770497
  y: 0.011315242306627376
  z: 0.0
angular:
  x: 0.0
  y: 0.0
  z: -0.03778210373773116
---
linear:
  x: 0.07251003643764693
  y: 0.011263023407702718
  z: 0.0
angular:
  x: 0.0
  y: 0.0
  z: -0.03780134497785585
---
linear:
  x: 0.07240657106895507
  y: 0.011211158589306179
  z: 0.0
angular:
  x: 0.0
  y: 0.0
  z: -0.03782152301757936
---
linear:
  x: 0.0723053817959298
  y: 0.011159647024585247
  z: 0.0
angular:
  x: 0.0
  y: 0.0
  z: -0.037842655144007996
---
linear:
  x: 0.07220648561803229
  y: 0.011108487916430149
  z: 0.0
angular:
  x: 0.0
  y: 0.0
  z: -0.03786475908379752
---
linear:
  x: 0.07210990023884249
  y: 0.011057680501585307
  z: 0.0
angular:
  x: 0.0
  y: 0.0
  z: -0.03788785302007879
---
linear:
  x: 0.0720156440890171
  y: 0.011007224049093524
  z: 0.0
angular:
  x: 0.0
  y: 0.0
  z: -0.037911955607392064
---
linear:
  x: 0.07192373634675861
  y: 0.010957117861714426
  z: 0.0
angular:
  x: 0.0
  y: 0.0
  z: -0.0379370859881468
---
linear:
  x: 0.0718341969650924
  y: 0.010907361277539577
  z: 0.0
angular:
  x: 0.0
  y: 0.0
  z: -0.0379632638116532
---
linear:
  x: 0.07174704669415419
  y: 0.010857953671684267
  z: 0.0
angular:
  x: 0.0
  y: 0.0
  z: -0.037990509251302866
---
linear:
  x: 0.07166230710559711
  y: 0.01080889445379224
  z: 0.0
angular:
  x: 0.0
  y: 0.0
  z: -0.0380188430225591
---
linear:
  x: 0.07158000062311946
  y: 0.010760183073182886
  z: 0.0
angular:
  x: 0.0
  y: 0.0
  z: -0.03804828640441304
---
linear:
  x: 0.07150015054821435
  y: 0.010711819017745747
  z: 0.0
angular:
  x: 0.0
  y: 0.0
  z: -0.03807886125888246
---
linear:
  x: 0.07142278108996578
  y: 0.010663801816081958
  z: 0.0
angular:
  x: 0.0
  y: 0.0
  z: -0.03811059005378155
---
linear:
  x: 0.07134791739731144
  y: 0.01061613103756527
  z: 0.0
angular:
  x: 0.0
  y: 0.0
  z: -0.03814349588359311
---
linear:
  x: 0.07127558558801814
  y: 0.010568806294264335
  z: 0.0
angular:
  x: 0.0
  y: 0.0
  z: -0.03817760249412664
---
linear:
  x: 0.07120581278612319
  y: 0.01052182724200283
  z: 0.0
angular:
  x: 0.0
  y: 0.0
  z: -0.038212934307406944
---
linear:
  x: 0.07113862715431264
  y: 0.010475193582954156
  z: 0.0
angular:
  x: 0.0
  y: 0.0
  z: -0.03824951644532055
---
linear:
  x: 0.0710740579330102
  y: 0.010428905064898903
  z: 0.0
angular:
  x: 0.0
  y: 0.0
  z: -0.03828737475967274
---
linear:
  x: 0.0710121354762345
  y: 0.010382961484431597
  z: 0.0
angular:
  x: 0.0
  y: 0.0
  z: -0.03832653585723446
---
linear:
  x: 0.07095289129520987
  y: 0.010337362687496706
  z: 0.0
angular:
  x: 0.0
  y: 0.0
  z: -0.038367027131007765
---
linear:
  x: 0.07089635809882514
  y: 0.010292108572099874
  z: 0.0
angular:
  x: 0.0
  y: 0.0
  z: -0.03840887679043317
---
linear:
  x: 0.07084256983865031
  y: 0.010247199088526244
  z: 0.0
angular:
  x: 0.0
  y: 0.0
  z: -0.03845211389388549
---
linear:
  x: 0.07079156175566959
  y: 0.010202634242962501
  z: 0.0
angular:
  x: 0.0
  y: 0.0
  z: -0.0384967683825727
---
linear:
  x: 0.07074337042855472
  y: 0.010158414097519997
  z: 0.0
angular:
  x: 0.0
  y: 0.0
  z: -0.038542871114673874
---
linear:
  x: 0.07069803382602567
  y: 0.010114538773389404
  z: 0.0
angular:
  x: 0.0
  y: 0.0
  z: -0.03859045390546841
---
linear:
  x: 0.070655591359843
  y: 0.010071008452469903
  z: 0.0
angular:
  x: 0.0
  y: 0.0
  z: -0.03863954956288403
---
linear:
  x: 0.0706160839423665
  y: 0.010027823379938716
  z: 0.0
angular:
  x: 0.0
  y: 0.0
  z: -0.03869019193166458
---
linear:
  x: 0.07057955404500234
  y: 0.009984983866145367
  z: 0.0
angular:
  x: 0.0
  y: 0.0
  z: -0.03874241593256327
---
linear:
  x: 0.07054604576073543
  y: 0.009942490288838908
  z: 0.0
angular:
  x: 0.0
  y: 0.0
  z: -0.038796257611802484
---
linear:
  x: 0.07051560487073574
  y: 0.0099003430966412
  z: 0.0
angular:
  x: 0.0
  y: 0.0
  z: -0.03885175418578687
---
linear:
  x: 0.07048827891324028
  y: 0.00985854281036838
  z: 0.0
angular:
  x: 0.0
  y: 0.0
  z: -0.03890894409162699
---
linear:
  x: 0.07046411725630486
  y: 0.009817090026995193
  z: 0.0
angular:
  x: 0.0
  y: 0.0
  z: -0.0389678670400449
---
linear:
  x: 0.0704431711724514
  y: 0.009775985421088967
  z: 0.0
angular:
  x: 0.0
  y: 0.0
  z: -0.03902856406943353
---
linear:
  x: 0.07042549392451558
  y: 0.009735229750278334
  z: 0.0
angular:
  x: 0.0
  y: 0.0
  z: -0.03909107760659445
---
linear:
  x: 0.07041114084457181
  y: 0.009694823855967498
  z: 0.0
angular:
  x: 0.0
  y: 0.0
  z: -0.03915545152551919
---
linear:
  x: 0.07040016942696892
  y: 0.009654768668410698
  z: 0.0
angular:
  x: 0.0
  y: 0.0
  z: -0.039221731212766175
---
linear:
  x: 0.07039263942360381
  y: 0.009615065210060069
  z: 0.0
angular:
  x: 0.0
  y: 0.0
  z: -0.03928996363602532
---
linear:
  x: 0.07038861294081271
  y: 0.009575714598671419
  z: 0.0
angular:
  x: 0.0
  y: 0.0
  z: -0.03936019741551121
---
linear:
  x: 0.07038815454923705
  y: 0.009536718051871368
  z: 0.0
angular:
  x: 0.0
  y: 0.0
  z: -0.039432482900622456
---
linear:
  x: 0.0703913313905932
  y: 0.009498076891993473
  z: 0.0
angular:
  x: 0.0
  y: 0.0
  z: -0.039506872249771216
---
linear:
  x: 0.07039821329840606
  y: 0.009459792550197837
  z: 0.0
angular:
  x: 0.0
  y: 0.0
  z: -0.039583419514888134
---
linear:
  x: 0.07040887292091003
  y: 0.009421866569003774
  z: 0.0
angular:
  x: 0.0
  y: 0.0
  z: -0.03966218072932514
---
linear:
  x: 0.07042338585419837
  y: 0.009384300612345955
  z: 0.0
angular:
  x: 0.0
  y: 0.0
  z: -0.039743214006772304
---
linear:
  x: 0.07044183078221666
  y: 0.00934709646596997
  z: 0.0
angular:
  x: 0.0
  y: 0.0
  z: -0.039826579638266364
---
linear:
  x: 0.07046428962169855
  y: 0.009310256045547355
  z: 0.0
angular:
  x: 0.0
  y: 0.0
  z: -0.039912340198773086
---
linear:
  x: 0.07049084768268826
  y: 0.009273781402408402
  z: 0.0
angular:
  x: 0.0
  y: 0.0
  z: -0.040000560660785014
---
linear:
  x: 0.0705215938317261
  y: 0.00923767472982772
  z: 0.0
angular:
  x: 0.0
  y: 0.0
  z: -0.04009130851301922
---
linear:
  x: 0.07055662067012732
  y: 0.009201938369410063
  z: 0.0
angular:
  x: 0.0
  y: 0.0
  z: -0.04018465388758351
---
linear:
  x: 0.07059602472147225
  y: 0.009166574819195942
  z: 0.0
angular:
  x: 0.0
  y: 0.0
  z: -0.04028066969495847
---
linear:
  x: 0.07063990662934734
  y: 0.009131586739652394
  z: 0.0
angular:
  x: 0.0
  y: 0.0
  z: -0.040379431764836674
---
linear:
  x: 0.07068837137004494
  y: 0.009096976963738014
  z: 0.0
angular:
  x: 0.0
  y: 0.0
  z: -0.04048101900116869
---
linear:
  x: 0.07074152847828849
  y: 0.009062748504716377
  z: 0.0
angular:
  x: 0.0
  y: 0.0
  z: -0.040585513541474556
---
linear:
  x: 0.07079949228596451
  y: 0.009028904564643347
  z: 0.0
angular:
  x: 0.0
  y: 0.0
  z: -0.04069300092961687
---
linear:
  x: 0.07086238217964713
  y: 0.00899544854546995
  z: 0.0
angular:
  x: 0.0
  y: 0.0
  z: -0.04080357030079603
---
linear:
  x: 0.07093032287163627
  y: 0.00896238405825299
  z: 0.0
angular:
  x: 0.0
  y: 0.0
  z: -0.040917314574021174
---
linear:
  x: 0.07100344469155223
  y: 0.008929714935838868
  z: 0.0
angular:
  x: 0.0
  y: 0.0
  z: -0.04103433066387341
---
linear:
  x: 0.07108188389831845
  y: 0.008897445243431711
  z: 0.0
angular:
  x: 0.0
  y: 0.0
  z: -0.04115471970249517
---
linear:
  x: 0.07116578300947513
  y: 0.008865579292223792
  z: 0.0
angular:
  x: 0.0
  y: 0.0
  z: -0.041278587275479665
---
linear:
  x: 0.07125529115915553
  y: 0.0088341216524663
  z: 0.0
angular:
  x: 0.0
  y: 0.0
  z: -0.04140604368111184
---
linear:
  x: 0.07135056447913214
  y: 0.008803077168014607
  z: 0.0
angular:
  x: 0.0
  y: 0.0
  z: -0.04153720419861251
---
linear:
  x: 0.07145176650213121
  y: 0.008772450973450382
  z: 0.0
angular:
  x: 0.0
  y: 0.0
  z: -0.041672189383189666
---
linear:
  x: 0.07155906860278193
  y: 0.008742248508574744
  z: 0.0
angular:
  x: 0.0
  y: 0.0
  z: -0.041811125376736015
---
linear:
  x: 0.07167265046594616
  y: 0.00871247553891717
  z: 0.0
angular:
  x: 0.0
  y: 0.0
  z: -0.04195414424684295
---
linear:
  x: 0.0717927005899758
  y: 0.008683138172812343
  z: 0.0
angular:
  x: 0.0
  y: 0.0
  z: -0.042101384346191845
---
linear:
  x: 0.07191941682783752
  y: 0.008654242883981707
  z: 0.0
angular:
  x: 0.0
  y: 0.0
  z: -0.04225299070061256
---
linear:
  x: 0.07205300697196856
  y: 0.008625796533329988
  z: 0.0
angular:
  x: 0.0
  y: 0.0
  z: -0.04240911542732075
---
linear:
  x: 0.07219368938202286
  y: 0.00859780639352863
  z: 0.0
angular:
  x: 0.0
  y: 0.0
  z: -0.042569918185802115
---
linear:
  x: 0.07234169365975435
  y: 0.008570280173111105
  z: 0.0
angular:
  x: 0.0
  y: 0.0
  z: -0.04273556666068319
---
linear:
  x: 0.07249726138656203
  y: 0.00854322604862536
  z: 0.0
angular:
  x: 0.0
  y: 0.0
  z: -0.0429062370890109
---
linear:
  x: 0.07266064690654145
  y: 0.008516652691477503
  z: 0.0
angular:
  x: 0.0
  y: 0.0
  z: -0.04308211482395702
---
linear:
  x: 0.07283211818747165
  y: 0.008490569303100434
  z: 0.0
angular:
  x: 0.0
  y: 0.0
  z: -0.043263394947828666
---
linear:
  x: 0.07301195774401843
  y: 0.008464985648543576
  z: 0.0
angular:
  x: 0.0
  y: 0.0
  z: -0.04345028293701992
---
linear:
  x: 0.07320046364105157
  y: 0.008439912097722093
  z: 0.0
angular:
  x: 0.0
  y: 0.0
  z: -0.04364299537672963
---
linear:
  x: 0.07339795058731298
  y: 0.008415359665603056
  z: 0.0
angular:
  x: 0.0
  y: 0.0
  z: -0.04384176074699177
---
linear:
  x: 0.07360475111777745
  y: 0.008391340059057641
  z: 0.0
angular:
  x: 0.0
  y: 0.0
  z: -0.044046820268319076
---
linear:
  x: 0.07382121688542735
  y: 0.008367865724936278
  z: 0.0
angular:
  x: 0.0
  y: 0.0
  z: -0.04425842882639633
---
linear:
